{
    "introduction": "# Places we have been \n In this blog post, we want to take you on our trip to the Dakotas. It has been an excimting time for us, and we saw a myriad of wildlife. See the map below for the places we have been to on this trip",
    "body": "## Let's look at some places \n Within our trip to the Dakota's, we have visited 3 National Parks and 2 State Parks. They are listed in the map above and are the following parks: \n 1. Badlands National Park \n 2. Wind cave National Pak \n 3. Custer State Park \n 4. Black Hills State Park \n 5. Theodore Roosevelt National Park",
    "geoData": [
        {
            "geoLocationName": "Badlands National Park",
            "lat": "43.8179276",
            "lon": "-102.3609811"
        },
        {
            "geoLocationName": "Wind cave National Park",
            "lat": "43.5544567",
            "lon": "-103.4775950"
        },
        {
            "geoLocationName": "Custer State Park",
            "lat": "43.7643650",
            "lon": "-103.5233085"
        },
        {
            "geoLocationName": "Mount Rushmore",
            "lat": "43.8787301",
            "lon": "-103.4591930"
        },
        {
            "geoLocationName": "Theodore Roosevelt National Park - South Unit",
            "lat": "46.9496456",
            "lon": "-103.5309405"
        },
        {
            "geoLocationName": "Theodore Roosevelt National Park - North Unit",
            "lat": "",
            "lon": ""
        }
    ]
}